[
  {
    "name": "GMC Bambolim",
    "verified": true,
    "type": "Government",
    "facility": " Oxygen/ Cardiac",
    "contact": "8975275946",
    "contact_name": "Yogesh",
    "location": "Bambolim",
    "district": "North Goa",
    "address": "Bambolim",
    "service_areas": "Unknown",
    "notes": "Oxygen available in the ambulances. 2 Cardiac care ambulances and 2 High flow oxygen(only 2 available in Goa)"
  },
  {
    "name": "Alex-n-Sons - Augustine",
    "verified": true,
    "type": "Private",
    "facility": "Oxygen Available",
    "contact": "9619460004",
    "contact_name": "Augustine Sequira",
    "location": "Parra",
    "district": "North Goa",
    "address": "Calangute",
    "service_areas": "Parra, Calangute",
    "notes": "1 Tata Winger , 1 Maruti Van"
  },
  {
    "name": "Kavyash Ambulance Service - Brijesh",
    "verified": true,
    "type": "Unknown Institution",
    "facility": "Regular/oxygen",
    "contact": "9822349554",
    "contact_name": "Brijesh",
    "location": "Bambolim",
    "district": "North Goa",
    "address": "Address Unknown",
    "service_areas": "All Goa",
    "notes": "3 Unit paid"
  },
  {
    "name": "Vinod Ambulance",
    "verified": true,
    "type": "Private",
    "facility": "Oxygen ",
    "contact": "7972749278",
    "contact_name": "Vinod",
    "location": "Margao",
    "district": "South Goa",
    "address": "Address Unknown",
    "service_areas": "Margao",
    "notes": "3 Units"
  },
  {
    "name": "Digvijit Chavan",
    "verified": true,
    "type": "Unknown Institution",
    "facility": "(Not an official ambulance, but covid support vehicle with oxygen bed)",
    "contact": "8329444170 / 7276112433 / (Call Malcom for Chinchinim) 7350544777",
    "contact_name": "Name Unknown",
    "location": "Margao (Navelim) / Chinchinim",
    "district": "South Goa",
    "address": "Navelim, Margao",
    "service_areas": "Navelim, Davorlim and Maruti mandir housing board",
    "notes": "Currently only for South Goa, transfers to district hospital and private hospitals. Also has 1 normal vehicle to transport multiple people (like families) for Covid testing. Free service for the poor and pay-it-forward for the well-to-do.  One more coming up, will inform by thursday"
  },
  {
    "name": "Vishal Rawlley",
    "verified": true,
    "type": "Private",
    "facility": "Regular",
    "contact": "9834245496",
    "contact_name": "Vishal",
    "location": "Panjim",
    "district": "North Goa",
    "address": "Nagali Hills, Dona Paula, Panjim",
    "service_areas": "Panjim, Taleigao, Santa Cruz, Merces, Ribandar",
    "notes": "1 Unit Eco Van"
  },
  {
    "name": "Ambulance Service Aldona",
    "verified": true,
    "type": "Government",
    "facility": "Regular",
    "contact": "9284054272 / 9822126125",
    "contact_name": "Name Unknown",
    "location": "Aldona",
    "district": "North Goa",
    "address": "Aldona",
    "service_areas": "Aldona Constituency",
    "notes": "Free Ambulance Service for people of Aldona Constituency"
  },
  {
    "name": "Nagarsenkar's Classic Hospital",
    "verified": true,
    "type": "Private",
    "facility": "Regular",
    "contact": "08322711014 / 08322711013 ",
    "contact_name": "Name Unknown",
    "location": "Margao, Goa",
    "district": "South Goa",
    "address": "Malbhat, Margao, Goa 403601",
    "service_areas": "In and around Margao, Goa",
    "notes": "Need to call Hospital Helpline "
  },
  {
    "name": "Street Providence Goa ",
    "verified": true,
    "type": "Unknown Institution",
    "facility": "Facilities Not Mention",
    "contact": "9923398887",
    "contact_name": "Vivek ",
    "location": "Locality Unknown",
    "district": "North Goa",
    "address": "Address Unknown",
    "service_areas": "In and around Bardez ",
    "notes": "Not ambulances but vehicles for transportaion for needy Covid patients. Preferable for mildly affected patients."
  },
  {
    "name": "Healthway Hospital",
    "verified": true,
    "type": "Private ",
    "facility": "Oxygen/Cardiac",
    "contact": "7770010333",
    "contact_name": "Name Unknown",
    "location": "Old Goa",
    "district": "North Goa",
    "address": "Bainguinim, Goa 403110",
    "service_areas": "Unknown",
    "notes": "Did not pick up the Call"
  },
  {
    "name": "Fatorda Covid Care Center",
    "verified": true,
    "type": "Government",
    "facility": "Regular",
    "contact": "Dr. Deepa 9623691243",
    "contact_name": "Name Unknown",
    "location": "Margao (Fatorda)",
    "district": "South Goa",
    "address": "Indoor Stadium, (opp Ravindra Bhavan), Fatorda",
    "service_areas": "Case are referred by PHC.",
    "notes": "1 Omni Van."
  },
  {
    "name": "Confidant ",
    "verified": true,
    "type": "Private ",
    "facility": "Regular ",
    "contact": "9823022194 / 9011911904",
    "contact_name": "Name Unknown",
    "location": "Margao ",
    "district": "South Goa",
    "address": "Margao ",
    "service_areas": "Only Margao ",
    "notes": "3 Hearse vans turned into ambulances "
  },
  {
    "name": "Hridhi Ambulance Service - Hemant Malik",
    "verified": true,
    "type": "Private",
    "facility": "Oxygen",
    "contact": "9823663329",
    "contact_name": "Hemant Malik",
    "location": "Bambolim",
    "district": "North Goa",
    "address": "Bambolim",
    "service_areas": "All Goa",
    "notes": "6 Units"
  },
  {
    "name": "Trimurti Ambulance Services",
    "verified": true,
    "type": "Private",
    "facility": "Oxygen",
    "contact": "0832-2700707",
    "contact_name": "Name Unknown",
    "location": "Margao, Goa",
    "district": "South Goa",
    "address": "Boarda",
    "service_areas": "In and around Margao. Goa",
    "notes": " 2 Units"
  },
  {
    "name": "Mandrem Covid Ambulance Services",
    "verified": true,
    "type": "Private ",
    "facility": "Facilities Not Mention",
    "contact": "9764174195",
    "contact_name": "Name Unknown",
    "location": "Parcem village",
    "district": "North Goa",
    "address": "Address Unknown",
    "service_areas": "In Madrem",
    "notes": "Free ambulance services for people of Mandrem Constituenncy, preferable for mildly affected patients as they do not have oxygen."
  },
  {
    "name": "Calangute Constituency Ambulance Service by Michael Lobo",
    "verified": true,
    "type": "Private",
    "facility": "Regular",
    "contact": "9923174600 /\n9552351212 / 8668807474 / 9822143792",
    "contact_name": "Name Unknown",
    "location": "Calangute",
    "district": "North Goa",
    "address": "Calangute",
    "service_areas": " Only Calangute and some surrounding areas",
    "notes": "2 Units"
  },
  {
    "name": "Wilfred D'Sa Charitable Society",
    "verified": true,
    "type": "Private ",
    "facility": "Oxygen Cylinder",
    "contact": "8010338230",
    "contact_name": "Name Unknown",
    "location": "Nuvem",
    "district": "South Goa",
    "address": "Nuvem",
    "service_areas": "Nuvem, Verna, Loutolim, Nagoa, Utorda, Calata, Majorda, Betalbatim (Nuvem Constituency).",
    "notes": "1 Maruti Eco. Also Provide Pick and drop facility for Covid Testing, Oxygen Cylinder for people in home isolation, medical doctor assistance and sanitisation services."
  },
  {
    "name": "Street Providence Goa ",
    "verified": true,
    "type": "Unknown Institution",
    "facility": "Facilities Not Mention",
    "contact": "9923398887",
    "contact_name": "Vivek ",
    "location": "Locality Unknown",
    "district": "South Goa",
    "address": "Address Unknown",
    "service_areas": "In Benaulim and Varca only.",
    "notes": "Toyota for transportation of needy Covid patients. "
  },
  {
    "name": "Prassan Akhadkar Taxi ",
    "verified": true,
    "type": "Private ",
    "facility": "Facilities Not Mention",
    "contact": "9923490787 / 7038107410 ",
    "contact_name": "Name Unknown",
    "location": "Cortalim ",
    "district": "South Goa",
    "address": "Address Unknown",
    "service_areas": "All over Goa ",
    "notes": "3 taxis, 1 tempo traveller, can be contacted by mildly affected patients. Only if patient is very poor services will be provided free."
  },
  {
    "name": "Covid Assist",
    "verified": true,
    "type": "Private ",
    "facility": "Facilities Not Mention",
    "contact": "8308607788",
    "contact_name": "Anshika",
    "location": "Porvorim",
    "district": "North Goa",
    "address": "Address Unknown",
    "service_areas": "In and around Porvorim areas",
    "notes": "1 Maruti Omni, preferable for patients with mild sympots."
  },
  {
    "name": "Curchorem ambulance ",
    "verified": true,
    "type": "Private ",
    "facility": "Oxygen ",
    "contact": "9921651717",
    "contact_name": "Pinty hodarkar",
    "location": "Curchorem ",
    "district": "Unknown",
    "address": "Curchorem ",
    "service_areas": "Only curchorem",
    "notes": "One van with oxygen facility "
  },
  {
    "name": "Living Water Charitable Trust",
    "verified": true,
    "type": "Private ",
    "facility": "Pick up and Drop",
    "contact": "9561734015 / 8308946591 / 77441834329",
    "contact_name": "Name Unknown",
    "location": "Calangute",
    "district": "North Goa",
    "address": "Calangute",
    "service_areas": "Pick up and drop to candolim health center, Asilo NGDH, GMC, ESI Margao, SGDH",
    "notes": "This is only pick up and drop for all patients in need. Can ask help to deliver Medicines too"
  },
  {
    "name": "PHC Shiroda ",
    "verified": true,
    "type": "Government",
    "facility": "Oxygen well equipped",
    "contact": "0832-2307073",
    "contact_name": "Name Unknown",
    "location": "Shiroda",
    "district": "North Goa",
    "address": "Shiroda",
    "service_areas": "Shiroda and nearby areas",
    "notes": "3 ambulances are available"
  },
  {
    "name": "Seva - Hi - Sanghatan",
    "verified": true,
    "type": "Private ",
    "facility": "Pick up and Drop",
    "contact": "9175995259 / 7774086991 / 8380044544",
    "contact_name": "Mandar Naik",
    "location": "Mapusa Constituency",
    "district": "North Goa",
    "address": "Address Unknown",
    "service_areas": "Entire Mapusa Constiency",
    "notes": "2 vans"
  },
  {
    "name": "Hopes Foundation",
    "verified": true,
    "type": "Private ",
    "facility": "Pick up and Drop",
    "contact": "9422445859 / 9923490506 / 9511626112",
    "contact_name": "Milind / Mohan / Akshaya",
    "location": "Vasco",
    "district": "South Goa",
    "address": "Mangor Hill",
    "service_areas": "Mangor Hill Area",
    "notes": "1 Toyota Innova"
  },
  {
    "name": "Air Ambulance Aviation",
    "verified": true,
    "type": "Private",
    "facility": "Full ICU Facility",
    "contact": "095401 61344",
    "contact_name": "Name Unknown",
    "location": "Mormugao",
    "district": "Unknown",
    "address": "Goa airport, Dabolim, Goa.",
    "service_areas": "Full of Goa.",
    "notes": "Provide only air ambulance service."
  },
  {
    "name": "St Anthony Hospital & Research Centre",
    "verified": true,
    "type": "Private",
    "facility": "Oxygern",
    "contact": "9822486688",
    "contact_name": "Name Unknown",
    "location": "Anjuna",
    "district": "North Goa",
    "address": "Address Unknown",
    "service_areas": "All over North Goa.",
    "notes": "3 ambulances at hand."
  },
  {
    "name": "James",
    "verified": true,
    "type": "Private",
    "facility": "Pick and Drop",
    "contact": "9822104957",
    "contact_name": " James",
    "location": "Panjim",
    "district": "North Goa",
    "address": "Miramar",
    "service_areas": "Miramar",
    "notes": "1 unit , will be starting the service by 17th May"
  },
  {
    "name": "Street Providence Goa ",
    "verified": true,
    "type": "Private",
    "facility": "Pick & Drop, Oxygen",
    "contact": "9923398887",
    "contact_name": "Vivek Silva",
    "location": "Bardez",
    "district": "North Goa",
    "address": "Address Unknown",
    "service_areas": "In and around Bardez ",
    "notes": "Not ambulances but vehicles for transportaion for needy Covid patients. Preferable for mildly affected patients."
  },
  {
    "name": "Street Providence Goa ",
    "verified": true,
    "type": "Private",
    "facility": "Pick & Drop, Oxygen",
    "contact": "9011057972",
    "contact_name": "Orlando Mesquita",
    "location": "Locality Unknown",
    "district": "South Goa",
    "address": "Address Unknown",
    "service_areas": "In Benaulim and Varca only.",
    "notes": "Toyota for transportation of needy Covid patients. "
  },
  {
    "name": "Goa Miles ",
    "verified": true,
    "type": "Unknown Institution",
    "facility": "Facilities Not Mention",
    "contact": "8888800405",
    "contact_name": "Name Unknown",
    "location": "Locality Unknown",
    "district": "Unknown",
    "address": "Address Unknown",
    "service_areas": "Unknown",
    "notes": "Automated service"
  },
  {
    "name": "Street Providence Goa ",
    "verified": true,
    "type": "Private",
    "facility": "Oxygen",
    "contact": "7775890086",
    "contact_name": "Dixon Vaz",
    "location": "Cavellosim",
    "district": "South Goa",
    "address": "Address Unknown",
    "service_areas": "Only in Cavellosim area people.",
    "notes": "Maruti Eco. They also provide oxygen cylinders at home and also food for covid patients."
  }
]
